{"Person 1": {"name": "Example Person 1", "address": "Example Address 1", "grade": 12, "lat": 30.364, "long": -97.609}, "Person 2": {"name": "Example Person 2", "address": "Example Address 2", "grade": 5, "lat": 30.176, "long": -97.725}, "Person 3": {"name": "Example Person 3", "address": "Example Address 3", "grade": 10, "lat": 30.239, "long": -97.89}, "Person 4": {"name": "Example Person 4", "address": "Example Address 4", "grade": 8, "lat": 30.185, "long": -97.866}, "Person 5": {"name": "Example Person 5", "address": "Example Address 5", "grade": 8, "lat": 30.246, "long": -97.849}, "Person 6": {"name": "Example Person 6", "address": "Example Address 6", "grade": 11, "lat": 30.38, "long": -97.613}, "Person 7": {"name": "Example Person 7", "address": "Example Address 7", "grade": 7, "lat": 30.381, "long": -97.711}, "Person 8": {"name": "Example Person 8", "address": "Example Address 8", "grade": 11, "lat": 30.362, "long": -97.861}, "Person 9": {"name": "Example Person 9", "address": "Example Address 9", "grade": 5, "lat": 30.285, "long": -97.855}, "Person 10": {"name": "Example Person 10", "address": "Example Address 10", "grade": 5, "lat": 30.135, "long": -97.769}, "Person 11": {"name": "Example Person 11", "address": "Example Address 11", "grade": 5, "lat": 30.372, "long": -97.641}, "Person 12": {"name": "Example Person 12", "address": "Example Address 12", "grade": 9, "lat": 30.331, "long": -97.68}, "Person 13": {"name": "Example Person 13", "address": "Example Address 13", "grade": 9, "lat": 30.374, "long": -97.868}, "Person 14": {"name": "Example Person 14", "address": "Example Address 14", "grade": 5, "lat": 30.29, "long": -97.782}, "Person 15": {"name": "Example Person 15", "address": "Example Address 15", "grade": 6, "lat": 30.208, "long": -97.775}, "Person 16": {"name": "Example Person 16", "address": "Example Address 16", "grade": 7, "lat": 30.142, "long": -97.638}, "Person 17": {"name": "Example Person 17", "address": "Example Address 17", "grade": 5, "lat": 30.401, "long": -97.627}, "Person 18": {"name": "Example Person 18", "address": "Example Address 18", "grade": 7, "lat": 30.335, "long": -97.606}, "Person 19": {"name": "Example Person 19", "address": "Example Address 19", "grade": 11, "lat": 30.121, "long": -97.749}, "Person 20": {"name": "Example Person 20", "address": "Example Address 20", "grade": 11, "lat": 30.177, "long": -97.611}, "Person 21": {"name": "Example Person 21", "address": "Example Address 21", "grade": 5, "lat": 30.342, "long": -97.884}, "Person 22": {"name": "Example Person 22", "address": "Example Address 22", "grade": 11, "lat": 30.383, "long": -97.737}, "Person 23": {"name": "Example Person 23", "address": "Example Address 23", "grade": 9, "lat": 30.201, "long": -97.709}, "Person 24": {"name": "Example Person 24", "address": "Example Address 24", "grade": 8, "lat": 30.307, "long": -97.833}, "Person 25": {"name": "Example Person 25", "address": "Example Address 25", "grade": 12, "lat": 30.364, "long": -97.807}, "Person 26": {"name": "Example Person 26", "address": "Example Address 26", "grade": 7, "lat": 30.172, "long": -97.78}, "Person 27": {"name": "Example Person 27", "address": "Example Address 27", "grade": 7, "lat": 30.262, "long": -97.773}, "Person 28": {"name": "Example Person 28", "address": "Example Address 28", "grade": 12, "lat": 30.365, "long": -97.793}, "Person 29": {"name": "Example Person 29", "address": "Example Address 29", "grade": 11, "lat": 30.142, "long": -97.624}, "Person 30": {"name": "Example Person 30", "address": "Example Address 30", "grade": 5, "lat": 30.148, "long": -97.734}, "Person 31": {"name": "Example Person 31", "address": "Example Address 31", "grade": 10, "lat": 30.287, "long": -97.846}, "Person 32": {"name": "Example Person 32", "address": "Example Address 32", "grade": 12, "lat": 30.284, "long": -97.64}, "Person 33": {"name": "Example Person 33", "address": "Example Address 33", "grade": 10, "lat": 30.415, "long": -97.864}, "Person 34": {"name": "Example Person 34", "address": "Example Address 34", "grade": 6, "lat": 30.414, "long": -97.655}, "Person 35": {"name": "Example Person 35", "address": "Example Address 35", "grade": 9, "lat": 30.136, "long": -97.721}, "Person 36": {"name": "Example Person 36", "address": "Example Address 36", "grade": 8, "lat": 30.302, "long": -97.647}, "Person 37": {"name": "Example Person 37", "address": "Example Address 37", "grade": 9, "lat": 30.252, "long": -97.664}, "Person 38": {"name": "Example Person 38", "address": "Example Address 38", "grade": 6, "lat": 30.161, "long": -97.754}, "Person 39": {"name": "Example Person 39", "address": "Example Address 39", "grade": 9, "lat": 30.14, "long": -97.697}, "Person 40": {"name": "Example Person 40", "address": "Example Address 40", "grade": 10, "lat": 30.414, "long": -97.759}, "Person 41": {"name": "Example Person 41", "address": "Example Address 41", "grade": 11, "lat": 30.142, "long": -97.889}, "Person 42": {"name": "Example Person 42", "address": "Example Address 42", "grade": 10, "lat": 30.156, "long": -97.635}, "Person 43": {"name": "Example Person 43", "address": "Example Address 43", "grade": 6, "lat": 30.119, "long": -97.692}, "Person 44": {"name": "Example Person 44", "address": "Example Address 44", "grade": 9, "lat": 30.151, "long": -97.794}, "Person 45": {"name": "Example Person 45", "address": "Example Address 45", "grade": 8, "lat": 30.167, "long": -97.594}, "Person 46": {"name": "Example Person 46", "address": "Example Address 46", "grade": 11, "lat": 30.279, "long": -97.838}, "Person 47": {"name": "Example Person 47", "address": "Example Address 47", "grade": 11, "lat": 30.28, "long": -97.804}, "Person 48": {"name": "Example Person 48", "address": "Example Address 48", "grade": 7, "lat": 30.417, "long": -97.878}, "Person 49": {"name": "Example Person 49", "address": "Example Address 49", "grade": 7, "lat": 30.232, "long": -97.769}, "Person 50": {"name": "Example Person 50", "address": "Example Address 50", "grade": 10, "lat": 30.173, "long": -97.781}, "Person 51": {"name": "Example Person 51", "address": "Example Address 51", "grade": 6, "lat": 30.186, "long": -97.808}, "Person 52": {"name": "Example Person 52", "address": "Example Address 52", "grade": 9, "lat": 30.385, "long": -97.673}, "Person 53": {"name": "Example Person 53", "address": "Example Address 53", "grade": 9, "lat": 30.37, "long": -97.876}, "Person 54": {"name": "Example Person 54", "address": "Example Address 54", "grade": 12, "lat": 30.161, "long": -97.621}, "Person 55": {"name": "Example Person 55", "address": "Example Address 55", "grade": 5, "lat": 30.258, "long": -97.683}, "Person 56": {"name": "Example Person 56", "address": "Example Address 56", "grade": 12, "lat": 30.259, "long": -97.839}, "Person 57": {"name": "Example Person 57", "address": "Example Address 57", "grade": 8, "lat": 30.162, "long": -97.805}, "Person 58": {"name": "Example Person 58", "address": "Example Address 58", "grade": 7, "lat": 30.188, "long": -97.769}, "Person 59": {"name": "Example Person 59", "address": "Example Address 59", "grade": 9, "lat": 30.341, "long": -97.625}, "Person 60": {"name": "Example Person 60", "address": "Example Address 60", "grade": 12, "lat": 30.309, "long": -97.663}, "Person 61": {"name": "Example Person 61", "address": "Example Address 61", "grade": 12, "lat": 30.177, "long": -97.849}, "Person 62": {"name": "Example Person 62", "address": "Example Address 62", "grade": 11, "lat": 30.227, "long": -97.697}, "Person 63": {"name": "Example Person 63", "address": "Example Address 63", "grade": 7, "lat": 30.207, "long": -97.738}, "Person 64": {"name": "Example Person 64", "address": "Example Address 64", "grade": 10, "lat": 30.287, "long": -97.631}, "Person 65": {"name": "Example Person 65", "address": "Example Address 65", "grade": 11, "lat": 30.122, "long": -97.748}, "Person 66": {"name": "Example Person 66", "address": "Example Address 66", "grade": 12, "lat": 30.152, "long": -97.611}, "Person 67": {"name": "Example Person 67", "address": "Example Address 67", "grade": 8, "lat": 30.333, "long": -97.633}, "Person 68": {"name": "Example Person 68", "address": "Example Address 68", "grade": 5, "lat": 30.252, "long": -97.687}, "Person 69": {"name": "Example Person 69", "address": "Example Address 69", "grade": 11, "lat": 30.212, "long": -97.877}, "Person 70": {"name": "Example Person 70", "address": "Example Address 70", "grade": 9, "lat": 30.16, "long": -97.817}, "Person 71": {"name": "Example Person 71", "address": "Example Address 71", "grade": 12, "lat": 30.323, "long": -97.881}, "Person 72": {"name": "Example Person 72", "address": "Example Address 72", "grade": 12, "lat": 30.256, "long": -97.601}, "Person 73": {"name": "Example Person 73", "address": "Example Address 73", "grade": 9, "lat": 30.192, "long": -97.782}, "Person 74": {"name": "Example Person 74", "address": "Example Address 74", "grade": 7, "lat": 30.23, "long": -97.698}, "Person 75": {"name": "Example Person 75", "address": "Example Address 75", "grade": 7, "lat": 30.253, "long": -97.633}, "Person 76": {"name": "Example Person 76", "address": "Example Address 76", "grade": 8, "lat": 30.317, "long": -97.6}, "Person 77": {"name": "Example Person 77", "address": "Example Address 77", "grade": 5, "lat": 30.126, "long": -97.884}, "Person 78": {"name": "Example Person 78", "address": "Example Address 78", "grade": 11, "lat": 30.191, "long": -97.816}, "Person 79": {"name": "Example Person 79", "address": "Example Address 79", "grade": 6, "lat": 30.377, "long": -97.698}, "Person 80": {"name": "Example Person 80", "address": "Example Address 80", "grade": 6, "lat": 30.375, "long": -97.633}, "Person 81": {"name": "Example Person 81", "address": "Example Address 81", "grade": 10, "lat": 30.137, "long": -97.609}, "Person 82": {"name": "Example Person 82", "address": "Example Address 82", "grade": 11, "lat": 30.172, "long": -97.611}, "Person 83": {"name": "Example Person 83", "address": "Example Address 83", "grade": 11, "lat": 30.348, "long": -97.873}, "Person 84": {"name": "Example Person 84", "address": "Example Address 84", "grade": 8, "lat": 30.232, "long": -97.864}, "Person 85": {"name": "Example Person 85", "address": "Example Address 85", "grade": 11, "lat": 30.289, "long": -97.857}, "Person 86": {"name": "Example Person 86", "address": "Example Address 86", "grade": 10, "lat": 30.186, "long": -97.756}, "Person 87": {"name": "Example Person 87", "address": "Example Address 87", "grade": 12, "lat": 30.335, "long": -97.721}, "Person 88": {"name": "Example Person 88", "address": "Example Address 88", "grade": 7, "lat": 30.405, "long": -97.709}, "Person 89": {"name": "Example Person 89", "address": "Example Address 89", "grade": 11, "lat": 30.152, "long": -97.871}, "Person 90": {"name": "Example Person 90", "address": "Example Address 90", "grade": 12, "lat": 30.254, "long": -97.603}, "Person 91": {"name": "Example Person 91", "address": "Example Address 91", "grade": 11, "lat": 30.389, "long": -97.609}, "Person 92": {"name": "Example Person 92", "address": "Example Address 92", "grade": 7, "lat": 30.338, "long": -97.852}, "Person 93": {"name": "Example Person 93", "address": "Example Address 93", "grade": 12, "lat": 30.129, "long": -97.667}, "Person 94": {"name": "Example Person 94", "address": "Example Address 94", "grade": 5, "lat": 30.271, "long": -97.879}, "Person 95": {"name": "Example Person 95", "address": "Example Address 95", "grade": 8, "lat": 30.313, "long": -97.714}, "Person 96": {"name": "Example Person 96", "address": "Example Address 96", "grade": 6, "lat": 30.199, "long": -97.78}, "Person 97": {"name": "Example Person 97", "address": "Example Address 97", "grade": 8, "lat": 30.296, "long": -97.802}, "Person 98": {"name": "Example Person 98", "address": "Example Address 98", "grade": 12, "lat": 30.275, "long": -97.799}, "Person 99": {"name": "Example Person 99", "address": "Example Address 99", "grade": 11, "lat": 30.355, "long": -97.61}, "Person 100": {"name": "Example Person 100", "address": "Example Address 100", "grade": 5, "lat": 30.137, "long": -97.721}, "Person 101": {"name": "Example Person 101", "address": "Example Address 101", "grade": 10, "lat": 30.224, "long": -97.872}, "Person 102": {"name": "Example Person 102", "address": "Example Address 102", "grade": 5, "lat": 30.18, "long": -97.638}, "Person 103": {"name": "Example Person 103", "address": "Example Address 103", "grade": 11, "lat": 30.37, "long": -97.837}, "Person 104": {"name": "Example Person 104", "address": "Example Address 104", "grade": 8, "lat": 30.249, "long": -97.675}, "Person 105": {"name": "Example Person 105", "address": "Example Address 105", "grade": 7, "lat": 30.331, "long": -97.811}, "Person 106": {"name": "Example Person 106", "address": "Example Address 106", "grade": 5, "lat": 30.126, "long": -97.629}, "Person 107": {"name": "Example Person 107", "address": "Example Address 107", "grade": 9, "lat": 30.271, "long": -97.799}, "Person 108": {"name": "Example Person 108", "address": "Example Address 108", "grade": 11, "lat": 30.135, "long": -97.864}, "Person 109": {"name": "Example Person 109", "address": "Example Address 109", "grade": 10, "lat": 30.304, "long": -97.806}, "Person 110": {"name": "Example Person 110", "address": "Example Address 110", "grade": 9, "lat": 30.145, "long": -97.72}, "Person 111": {"name": "Example Person 111", "address": "Example Address 111", "grade": 12, "lat": 30.149, "long": -97.708}, "Person 112": {"name": "Example Person 112", "address": "Example Address 112", "grade": 12, "lat": 30.325, "long": -97.602}, "Person 113": {"name": "Example Person 113", "address": "Example Address 113", "grade": 6, "lat": 30.329, "long": -97.666}, "Person 114": {"name": "Example Person 114", "address": "Example Address 114", "grade": 10, "lat": 30.173, "long": -97.659}, "Person 115": {"name": "Example Person 115", "address": "Example Address 115", "grade": 6, "lat": 30.371, "long": -97.797}, "Person 116": {"name": "Example Person 116", "address": "Example Address 116", "grade": 12, "lat": 30.329, "long": -97.853}, "Person 117": {"name": "Example Person 117", "address": "Example Address 117", "grade": 11, "lat": 30.325, "long": -97.629}, "Person 118": {"name": "Example Person 118", "address": "Example Address 118", "grade": 11, "lat": 30.338, "long": -97.848}, "Person 119": {"name": "Example Person 119", "address": "Example Address 119", "grade": 6, "lat": 30.363, "long": -97.657}, "Person 120": {"name": "Example Person 120", "address": "Example Address 120", "grade": 12, "lat": 30.332, "long": -97.893}, "Person 121": {"name": "Example Person 121", "address": "Example Address 121", "grade": 7, "lat": 30.124, "long": -97.723}, "Person 122": {"name": "Example Person 122", "address": "Example Address 122", "grade": 5, "lat": 30.301, "long": -97.676}, "Person 123": {"name": "Example Person 123", "address": "Example Address 123", "grade": 9, "lat": 30.367, "long": -97.73}, "Person 124": {"name": "Example Person 124", "address": "Example Address 124", "grade": 12, "lat": 30.384, "long": -97.83}, "Person 125": {"name": "Example Person 125", "address": "Example Address 125", "grade": 9, "lat": 30.322, "long": -97.626}, "Person 126": {"name": "Example Person 126", "address": "Example Address 126", "grade": 11, "lat": 30.364, "long": -97.821}, "Person 127": {"name": "Example Person 127", "address": "Example Address 127", "grade": 5, "lat": 30.269, "long": -97.685}, "Person 128": {"name": "Example Person 128", "address": "Example Address 128", "grade": 5, "lat": 30.368, "long": -97.829}, "Person 129": {"name": "Example Person 129", "address": "Example Address 129", "grade": 6, "lat": 30.367, "long": -97.746}, "Person 130": {"name": "Example Person 130", "address": "Example Address 130", "grade": 6, "lat": 30.347, "long": -97.646}, "Person 131": {"name": "Example Person 131", "address": "Example Address 131", "grade": 8, "lat": 30.336, "long": -97.613}, "Person 132": {"name": "Example Person 132", "address": "Example Address 132", "grade": 10, "lat": 30.269, "long": -97.844}, "Person 133": {"name": "Example Person 133", "address": "Example Address 133", "grade": 7, "lat": 30.369, "long": -97.594}, "Person 134": {"name": "Example Person 134", "address": "Example Address 134", "grade": 12, "lat": 30.4, "long": -97.645}, "Person 135": {"name": "Example Person 135", "address": "Example Address 135", "grade": 10, "lat": 30.409, "long": -97.654}, "Person 136": {"name": "Example Person 136", "address": "Example Address 136", "grade": 7, "lat": 30.398, "long": -97.659}, "Person 137": {"name": "Example Person 137", "address": "Example Address 137", "grade": 11, "lat": 30.398, "long": -97.6}, "Person 138": {"name": "Example Person 138", "address": "Example Address 138", "grade": 6, "lat": 30.273, "long": -97.774}, "Person 139": {"name": "Example Person 139", "address": "Example Address 139", "grade": 8, "lat": 30.223, "long": -97.827}, "Person 140": {"name": "Example Person 140", "address": "Example Address 140", "grade": 11, "lat": 30.122, "long": -97.685}, "Person 141": {"name": "Example Person 141", "address": "Example Address 141", "grade": 6, "lat": 30.305, "long": -97.739}, "Person 142": {"name": "Example Person 142", "address": "Example Address 142", "grade": 8, "lat": 30.348, "long": -97.75}, "Person 143": {"name": "Example Person 143", "address": "Example Address 143", "grade": 11, "lat": 30.332, "long": -97.825}, "Person 144": {"name": "Example Person 144", "address": "Example Address 144", "grade": 7, "lat": 30.169, "long": -97.774}, "Person 145": {"name": "Example Person 145", "address": "Example Address 145", "grade": 12, "lat": 30.341, "long": -97.666}, "Person 146": {"name": "Example Person 146", "address": "Example Address 146", "grade": 8, "lat": 30.346, "long": -97.788}, "Person 147": {"name": "Example Person 147", "address": "Example Address 147", "grade": 12, "lat": 30.135, "long": -97.832}, "Person 148": {"name": "Example Person 148", "address": "Example Address 148", "grade": 8, "lat": 30.244, "long": -97.686}, "Person 149": {"name": "Example Person 149", "address": "Example Address 149", "grade": 8, "lat": 30.16, "long": -97.723}, "Person 150": {"name": "Example Person 150", "address": "Example Address 150", "grade": 12, "lat": 30.141, "long": -97.864}, "Person 151": {"name": "Example Person 151", "address": "Example Address 151", "grade": 5, "lat": 30.156, "long": -97.722}, "Person 152": {"name": "Example Person 152", "address": "Example Address 152", "grade": 9, "lat": 30.266, "long": -97.672}, "Person 153": {"name": "Example Person 153", "address": "Example Address 153", "grade": 9, "lat": 30.337, "long": -97.69}, "Person 154": {"name": "Example Person 154", "address": "Example Address 154", "grade": 7, "lat": 30.347, "long": -97.815}, "Person 155": {"name": "Example Person 155", "address": "Example Address 155", "grade": 8, "lat": 30.121, "long": -97.711}, "Person 156": {"name": "Example Person 156", "address": "Example Address 156", "grade": 6, "lat": 30.175, "long": -97.761}, "Person 157": {"name": "Example Person 157", "address": "Example Address 157", "grade": 5, "lat": 30.359, "long": -97.798}, "Person 158": {"name": "Example Person 158", "address": "Example Address 158", "grade": 10, "lat": 30.344, "long": -97.879}, "Person 159": {"name": "Example Person 159", "address": "Example Address 159", "grade": 9, "lat": 30.129, "long": -97.627}, "Person 160": {"name": "Example Person 160", "address": "Example Address 160", "grade": 5, "lat": 30.357, "long": -97.656}, "Person 161": {"name": "Example Person 161", "address": "Example Address 161", "grade": 8, "lat": 30.245, "long": -97.776}, "Person 162": {"name": "Example Person 162", "address": "Example Address 162", "grade": 10, "lat": 30.326, "long": -97.771}, "Person 163": {"name": "Example Person 163", "address": "Example Address 163", "grade": 5, "lat": 30.406, "long": -97.601}, "Person 164": {"name": "Example Person 164", "address": "Example Address 164", "grade": 11, "lat": 30.282, "long": -97.742}, "Person 165": {"name": "Example Person 165", "address": "Example Address 165", "grade": 5, "lat": 30.288, "long": -97.889}, "Person 166": {"name": "Example Person 166", "address": "Example Address 166", "grade": 12, "lat": 30.25, "long": -97.607}, "Person 167": {"name": "Example Person 167", "address": "Example Address 167", "grade": 11, "lat": 30.204, "long": -97.783}, "Person 168": {"name": "Example Person 168", "address": "Example Address 168", "grade": 10, "lat": 30.361, "long": -97.885}, "Person 169": {"name": "Example Person 169", "address": "Example Address 169", "grade": 8, "lat": 30.269, "long": -97.683}, "Person 170": {"name": "Example Person 170", "address": "Example Address 170", "grade": 9, "lat": 30.178, "long": -97.764}, "Person 171": {"name": "Example Person 171", "address": "Example Address 171", "grade": 9, "lat": 30.132, "long": -97.89}, "Person 172": {"name": "Example Person 172", "address": "Example Address 172", "grade": 12, "lat": 30.414, "long": -97.656}, "Person 173": {"name": "Example Person 173", "address": "Example Address 173", "grade": 5, "lat": 30.283, "long": -97.782}, "Person 174": {"name": "Example Person 174", "address": "Example Address 174", "grade": 12, "lat": 30.203, "long": -97.829}, "Person 175": {"name": "Example Person 175", "address": "Example Address 175", "grade": 9, "lat": 30.237, "long": -97.724}, "Person 176": {"name": "Example Person 176", "address": "Example Address 176", "grade": 9, "lat": 30.12, "long": -97.726}, "Person 177": {"name": "Example Person 177", "address": "Example Address 177", "grade": 5, "lat": 30.164, "long": -97.885}, "Person 178": {"name": "Example Person 178", "address": "Example Address 178", "grade": 11, "lat": 30.362, "long": -97.691}, "Person 179": {"name": "Example Person 179", "address": "Example Address 179", "grade": 6, "lat": 30.345, "long": -97.612}, "Person 180": {"name": "Example Person 180", "address": "Example Address 180", "grade": 9, "lat": 30.193, "long": -97.665}, "Person 181": {"name": "Example Person 181", "address": "Example Address 181", "grade": 5, "lat": 30.22, "long": -97.871}, "Person 182": {"name": "Example Person 182", "address": "Example Address 182", "grade": 10, "lat": 30.41, "long": -97.89}, "Person 183": {"name": "Example Person 183", "address": "Example Address 183", "grade": 5, "lat": 30.227, "long": -97.814}, "Person 184": {"name": "Example Person 184", "address": "Example Address 184", "grade": 6, "lat": 30.301, "long": -97.593}, "Person 185": {"name": "Example Person 185", "address": "Example Address 185", "grade": 5, "lat": 30.222, "long": -97.695}, "Person 186": {"name": "Example Person 186", "address": "Example Address 186", "grade": 11, "lat": 30.189, "long": -97.816}, "Person 187": {"name": "Example Person 187", "address": "Example Address 187", "grade": 10, "lat": 30.155, "long": -97.795}, "Person 188": {"name": "Example Person 188", "address": "Example Address 188", "grade": 7, "lat": 30.357, "long": -97.835}, "Person 189": {"name": "Example Person 189", "address": "Example Address 189", "grade": 9, "lat": 30.278, "long": -97.682}, "Person 190": {"name": "Example Person 190", "address": "Example Address 190", "grade": 7, "lat": 30.367, "long": -97.86}, "Person 191": {"name": "Example Person 191", "address": "Example Address 191", "grade": 9, "lat": 30.388, "long": -97.754}, "Person 192": {"name": "Example Person 192", "address": "Example Address 192", "grade": 9, "lat": 30.376, "long": -97.85}, "Person 193": {"name": "Example Person 193", "address": "Example Address 193", "grade": 6, "lat": 30.239, "long": -97.706}, "Person 194": {"name": "Example Person 194", "address": "Example Address 194", "grade": 6, "lat": 30.349, "long": -97.664}, "Person 195": {"name": "Example Person 195", "address": "Example Address 195", "grade": 12, "lat": 30.263, "long": -97.783}, "Person 196": {"name": "Example Person 196", "address": "Example Address 196", "grade": 9, "lat": 30.349, "long": -97.699}, "Person 197": {"name": "Example Person 197", "address": "Example Address 197", "grade": 5, "lat": 30.389, "long": -97.678}, "Person 198": {"name": "Example Person 198", "address": "Example Address 198", "grade": 12, "lat": 30.357, "long": -97.683}, "Person 199": {"name": "Example Person 199", "address": "Example Address 199", "grade": 7, "lat": 30.415, "long": -97.776}, "Person 200": {"name": "Example Person 200", "address": "Example Address 200", "grade": 11, "lat": 30.227, "long": -97.851}, "Person 201": {"name": "Example Person 201", "address": "Example Address 201", "grade": 5, "lat": 30.248, "long": -97.708}, "Person 202": {"name": "Example Person 202", "address": "Example Address 202", "grade": 9, "lat": 30.273, "long": -97.772}, "Person 203": {"name": "Example Person 203", "address": "Example Address 203", "grade": 11, "lat": 30.268, "long": -97.695}, "Person 204": {"name": "Example Person 204", "address": "Example Address 204", "grade": 8, "lat": 30.184, "long": -97.871}, "Person 205": {"name": "Example Person 205", "address": "Example Address 205", "grade": 9, "lat": 30.288, "long": -97.662}, "Person 206": {"name": "Example Person 206", "address": "Example Address 206", "grade": 5, "lat": 30.206, "long": -97.801}, "Person 207": {"name": "Example Person 207", "address": "Example Address 207", "grade": 8, "lat": 30.132, "long": -97.672}, "Person 208": {"name": "Example Person 208", "address": "Example Address 208", "grade": 11, "lat": 30.177, "long": -97.886}, "Person 209": {"name": "Example Person 209", "address": "Example Address 209", "grade": 7, "lat": 30.364, "long": -97.755}, "Person 210": {"name": "Example Person 210", "address": "Example Address 210", "grade": 10, "lat": 30.388, "long": -97.749}, "Person 211": {"name": "Example Person 211", "address": "Example Address 211", "grade": 5, "lat": 30.262, "long": -97.683}, "Person 212": {"name": "Example Person 212", "address": "Example Address 212", "grade": 9, "lat": 30.382, "long": -97.802}, "Person 213": {"name": "Example Person 213", "address": "Example Address 213", "grade": 11, "lat": 30.363, "long": -97.74}, "Person 214": {"name": "Example Person 214", "address": "Example Address 214", "grade": 7, "lat": 30.38, "long": -97.746}, "Person 215": {"name": "Example Person 215", "address": "Example Address 215", "grade": 12, "lat": 30.318, "long": -97.834}, "Person 216": {"name": "Example Person 216", "address": "Example Address 216", "grade": 7, "lat": 30.253, "long": -97.702}, "Person 217": {"name": "Example Person 217", "address": "Example Address 217", "grade": 11, "lat": 30.413, "long": -97.721}, "Person 218": {"name": "Example Person 218", "address": "Example Address 218", "grade": 11, "lat": 30.226, "long": -97.784}, "Person 219": {"name": "Example Person 219", "address": "Example Address 219", "grade": 10, "lat": 30.254, "long": -97.68}, "Person 220": {"name": "Example Person 220", "address": "Example Address 220", "grade": 5, "lat": 30.131, "long": -97.655}, "Person 221": {"name": "Example Person 221", "address": "Example Address 221", "grade": 11, "lat": 30.121, "long": -97.717}, "Person 222": {"name": "Example Person 222", "address": "Example Address 222", "grade": 5, "lat": 30.207, "long": -97.872}, "Person 223": {"name": "Example Person 223", "address": "Example Address 223", "grade": 9, "lat": 30.156, "long": -97.69}, "Person 224": {"name": "Example Person 224", "address": "Example Address 224", "grade": 9, "lat": 30.202, "long": -97.863}, "Person 225": {"name": "Example Person 225", "address": "Example Address 225", "grade": 12, "lat": 30.294, "long": -97.881}, "Person 226": {"name": "Example Person 226", "address": "Example Address 226", "grade": 12, "lat": 30.276, "long": -97.808}, "Person 227": {"name": "Example Person 227", "address": "Example Address 227", "grade": 7, "lat": 30.178, "long": -97.766}, "Person 228": {"name": "Example Person 228", "address": "Example Address 228", "grade": 7, "lat": 30.33, "long": -97.854}, "Person 229": {"name": "Example Person 229", "address": "Example Address 229", "grade": 12, "lat": 30.313, "long": -97.603}, "Person 230": {"name": "Example Person 230", "address": "Example Address 230", "grade": 10, "lat": 30.24, "long": -97.602}, "Person 231": {"name": "Example Person 231", "address": "Example Address 231", "grade": 9, "lat": 30.19, "long": -97.653}, "Person 232": {"name": "Example Person 232", "address": "Example Address 232", "grade": 10, "lat": 30.363, "long": -97.597}, "Person 233": {"name": "Example Person 233", "address": "Example Address 233", "grade": 6, "lat": 30.396, "long": -97.697}, "Person 234": {"name": "Example Person 234", "address": "Example Address 234", "grade": 12, "lat": 30.301, "long": -97.888}, "Person 235": {"name": "Example Person 235", "address": "Example Address 235", "grade": 10, "lat": 30.126, "long": -97.745}, "Person 236": {"name": "Example Person 236", "address": "Example Address 236", "grade": 11, "lat": 30.339, "long": -97.67}, "Person 237": {"name": "Example Person 237", "address": "Example Address 237", "grade": 6, "lat": 30.292, "long": -97.756}, "Person 238": {"name": "Example Person 238", "address": "Example Address 238", "grade": 11, "lat": 30.34, "long": -97.861}, "Person 239": {"name": "Example Person 239", "address": "Example Address 239", "grade": 6, "lat": 30.17, "long": -97.634}, "Person 240": {"name": "Example Person 240", "address": "Example Address 240", "grade": 5, "lat": 30.304, "long": -97.706}, "Person 241": {"name": "Example Person 241", "address": "Example Address 241", "grade": 8, "lat": 30.263, "long": -97.827}, "Person 242": {"name": "Example Person 242", "address": "Example Address 242", "grade": 5, "lat": 30.312, "long": -97.806}, "Person 243": {"name": "Example Person 243", "address": "Example Address 243", "grade": 12, "lat": 30.134, "long": -97.7}, "Person 244": {"name": "Example Person 244", "address": "Example Address 244", "grade": 11, "lat": 30.25, "long": -97.657}, "Person 245": {"name": "Example Person 245", "address": "Example Address 245", "grade": 10, "lat": 30.332, "long": -97.697}, "Person 246": {"name": "Example Person 246", "address": "Example Address 246", "grade": 6, "lat": 30.244, "long": -97.762}, "Person 247": {"name": "Example Person 247", "address": "Example Address 247", "grade": 8, "lat": 30.327, "long": -97.623}, "Person 248": {"name": "Example Person 248", "address": "Example Address 248", "grade": 12, "lat": 30.215, "long": -97.703}, "Person 249": {"name": "Example Person 249", "address": "Example Address 249", "grade": 5, "lat": 30.194, "long": -97.757}, "Person 250": {"name": "Example Person 250", "address": "Example Address 250", "grade": 11, "lat": 30.17, "long": -97.831}, "Person 251": {"name": "Example Person 251", "address": "Example Address 251", "grade": 5, "lat": 30.23, "long": -97.893}, "Person 252": {"name": "Example Person 252", "address": "Example Address 252", "grade": 10, "lat": 30.387, "long": -97.657}, "Person 253": {"name": "Example Person 253", "address": "Example Address 253", "grade": 9, "lat": 30.258, "long": -97.836}, "Person 254": {"name": "Example Person 254", "address": "Example Address 254", "grade": 12, "lat": 30.218, "long": -97.618}, "Person 255": {"name": "Example Person 255", "address": "Example Address 255", "grade": 12, "lat": 30.284, "long": -97.871}, "Person 256": {"name": "Example Person 256", "address": "Example Address 256", "grade": 6, "lat": 30.378, "long": -97.684}, "Person 257": {"name": "Example Person 257", "address": "Example Address 257", "grade": 12, "lat": 30.393, "long": -97.755}, "Person 258": {"name": "Example Person 258", "address": "Example Address 258", "grade": 10, "lat": 30.389, "long": -97.847}, "Person 259": {"name": "Example Person 259", "address": "Example Address 259", "grade": 8, "lat": 30.39, "long": -97.602}, "Person 260": {"name": "Example Person 260", "address": "Example Address 260", "grade": 6, "lat": 30.177, "long": -97.657}, "Person 261": {"name": "Example Person 261", "address": "Example Address 261", "grade": 10, "lat": 30.167, "long": -97.825}, "Person 262": {"name": "Example Person 262", "address": "Example Address 262", "grade": 8, "lat": 30.12, "long": -97.752}, "Person 263": {"name": "Example Person 263", "address": "Example Address 263", "grade": 10, "lat": 30.139, "long": -97.725}, "Person 264": {"name": "Example Person 264", "address": "Example Address 264", "grade": 7, "lat": 30.267, "long": -97.618}, "Person 265": {"name": "Example Person 265", "address": "Example Address 265", "grade": 5, "lat": 30.322, "long": -97.677}, "Person 266": {"name": "Example Person 266", "address": "Example Address 266", "grade": 9, "lat": 30.282, "long": -97.852}, "Person 267": {"name": "Example Person 267", "address": "Example Address 267", "grade": 11, "lat": 30.281, "long": -97.865}, "Person 268": {"name": "Example Person 268", "address": "Example Address 268", "grade": 12, "lat": 30.185, "long": -97.883}, "Person 269": {"name": "Example Person 269", "address": "Example Address 269", "grade": 8, "lat": 30.311, "long": -97.721}, "Person 270": {"name": "Example Person 270", "address": "Example Address 270", "grade": 11, "lat": 30.234, "long": -97.772}, "Person 271": {"name": "Example Person 271", "address": "Example Address 271", "grade": 8, "lat": 30.353, "long": -97.61}, "Person 272": {"name": "Example Person 272", "address": "Example Address 272", "grade": 10, "lat": 30.206, "long": -97.686}, "Person 273": {"name": "Example Person 273", "address": "Example Address 273", "grade": 8, "lat": 30.176, "long": -97.853}, "Person 274": {"name": "Example Person 274", "address": "Example Address 274", "grade": 10, "lat": 30.22, "long": -97.883}, "Person 275": {"name": "Example Person 275", "address": "Example Address 275", "grade": 12, "lat": 30.338, "long": -97.602}, "Person 276": {"name": "Example Person 276", "address": "Example Address 276", "grade": 9, "lat": 30.362, "long": -97.648}, "Person 277": {"name": "Example Person 277", "address": "Example Address 277", "grade": 6, "lat": 30.224, "long": -97.704}, "Person 278": {"name": "Example Person 278", "address": "Example Address 278", "grade": 5, "lat": 30.144, "long": -97.609}, "Person 279": {"name": "Example Person 279", "address": "Example Address 279", "grade": 11, "lat": 30.189, "long": -97.752}, "Person 280": {"name": "Example Person 280", "address": "Example Address 280", "grade": 5, "lat": 30.292, "long": -97.681}, "Person 281": {"name": "Example Person 281", "address": "Example Address 281", "grade": 6, "lat": 30.408, "long": -97.86}, "Person 282": {"name": "Example Person 282", "address": "Example Address 282", "grade": 10, "lat": 30.169, "long": -97.873}, "Person 283": {"name": "Example Person 283", "address": "Example Address 283", "grade": 10, "lat": 30.311, "long": -97.623}, "Person 284": {"name": "Example Person 284", "address": "Example Address 284", "grade": 5, "lat": 30.188, "long": -97.597}, "Person 285": {"name": "Example Person 285", "address": "Example Address 285", "grade": 10, "lat": 30.359, "long": -97.83}, "Person 286": {"name": "Example Person 286", "address": "Example Address 286", "grade": 11, "lat": 30.391, "long": -97.644}, "Person 287": {"name": "Example Person 287", "address": "Example Address 287", "grade": 10, "lat": 30.254, "long": -97.88}, "Person 288": {"name": "Example Person 288", "address": "Example Address 288", "grade": 8, "lat": 30.142, "long": -97.702}, "Person 289": {"name": "Example Person 289", "address": "Example Address 289", "grade": 7, "lat": 30.358, "long": -97.645}, "Person 290": {"name": "Example Person 290", "address": "Example Address 290", "grade": 5, "lat": 30.306, "long": -97.776}, "Person 291": {"name": "Example Person 291", "address": "Example Address 291", "grade": 9, "lat": 30.307, "long": -97.83}, "Person 292": {"name": "Example Person 292", "address": "Example Address 292", "grade": 11, "lat": 30.118, "long": -97.713}, "Person 293": {"name": "Example Person 293", "address": "Example Address 293", "grade": 6, "lat": 30.384, "long": -97.801}, "Person 294": {"name": "Example Person 294", "address": "Example Address 294", "grade": 5, "lat": 30.359, "long": -97.732}, "Person 295": {"name": "Example Person 295", "address": "Example Address 295", "grade": 12, "lat": 30.21, "long": -97.746}, "Person 296": {"name": "Example Person 296", "address": "Example Address 296", "grade": 10, "lat": 30.244, "long": -97.719}, "Person 297": {"name": "Example Person 297", "address": "Example Address 297", "grade": 6, "lat": 30.328, "long": -97.869}, "Person 298": {"name": "Example Person 298", "address": "Example Address 298", "grade": 5, "lat": 30.259, "long": -97.785}, "Person 299": {"name": "Example Person 299", "address": "Example Address 299", "grade": 10, "lat": 30.297, "long": -97.75}, "Person 300": {"name": "Example Person 300", "address": "Example Address 300", "grade": 7, "lat": 30.119, "long": -97.649}, "Person 301": {"name": "Example Person 301", "address": "Example Address 301", "grade": 12, "lat": 30.189, "long": -97.646}, "Person 302": {"name": "Example Person 302", "address": "Example Address 302", "grade": 6, "lat": 30.178, "long": -97.596}, "Person 303": {"name": "Example Person 303", "address": "Example Address 303", "grade": 11, "lat": 30.354, "long": -97.658}, "Person 304": {"name": "Example Person 304", "address": "Example Address 304", "grade": 5, "lat": 30.186, "long": -97.725}, "Person 305": {"name": "Example Person 305", "address": "Example Address 305", "grade": 6, "lat": 30.316, "long": -97.614}, "Person 306": {"name": "Example Person 306", "address": "Example Address 306", "grade": 6, "lat": 30.189, "long": -97.676}, "Person 307": {"name": "Example Person 307", "address": "Example Address 307", "grade": 8, "lat": 30.193, "long": -97.723}, "Person 308": {"name": "Example Person 308", "address": "Example Address 308", "grade": 7, "lat": 30.147, "long": -97.657}, "Person 309": {"name": "Example Person 309", "address": "Example Address 309", "grade": 10, "lat": 30.179, "long": -97.746}, "Person 310": {"name": "Example Person 310", "address": "Example Address 310", "grade": 6, "lat": 30.28, "long": -97.78}, "Person 311": {"name": "Example Person 311", "address": "Example Address 311", "grade": 6, "lat": 30.328, "long": -97.671}, "Person 312": {"name": "Example Person 312", "address": "Example Address 312", "grade": 5, "lat": 30.39, "long": -97.844}, "Person 313": {"name": "Example Person 313", "address": "Example Address 313", "grade": 8, "lat": 30.141, "long": -97.775}, "Person 314": {"name": "Example Person 314", "address": "Example Address 314", "grade": 5, "lat": 30.212, "long": -97.818}, "Person 315": {"name": "Example Person 315", "address": "Example Address 315", "grade": 9, "lat": 30.161, "long": -97.616}, "Person 316": {"name": "Example Person 316", "address": "Example Address 316", "grade": 12, "lat": 30.163, "long": -97.657}, "Person 317": {"name": "Example Person 317", "address": "Example Address 317", "grade": 11, "lat": 30.394, "long": -97.858}, "Person 318": {"name": "Example Person 318", "address": "Example Address 318", "grade": 8, "lat": 30.234, "long": -97.868}, "Person 319": {"name": "Example Person 319", "address": "Example Address 319", "grade": 9, "lat": 30.211, "long": -97.738}, "Person 320": {"name": "Example Person 320", "address": "Example Address 320", "grade": 9, "lat": 30.127, "long": -97.687}, "Person 321": {"name": "Example Person 321", "address": "Example Address 321", "grade": 7, "lat": 30.405, "long": -97.629}, "Person 322": {"name": "Example Person 322", "address": "Example Address 322", "grade": 9, "lat": 30.216, "long": -97.606}, "Person 323": {"name": "Example Person 323", "address": "Example Address 323", "grade": 10, "lat": 30.195, "long": -97.858}, "Person 324": {"name": "Example Person 324", "address": "Example Address 324", "grade": 8, "lat": 30.413, "long": -97.621}, "Person 325": {"name": "Example Person 325", "address": "Example Address 325", "grade": 12, "lat": 30.338, "long": -97.741}, "Person 326": {"name": "Example Person 326", "address": "Example Address 326", "grade": 11, "lat": 30.196, "long": -97.804}, "Person 327": {"name": "Example Person 327", "address": "Example Address 327", "grade": 12, "lat": 30.194, "long": -97.85}, "Person 328": {"name": "Example Person 328", "address": "Example Address 328", "grade": 12, "lat": 30.224, "long": -97.736}, "Person 329": {"name": "Example Person 329", "address": "Example Address 329", "grade": 10, "lat": 30.392, "long": -97.748}, "Person 330": {"name": "Example Person 330", "address": "Example Address 330", "grade": 10, "lat": 30.296, "long": -97.849}, "Person 331": {"name": "Example Person 331", "address": "Example Address 331", "grade": 6, "lat": 30.275, "long": -97.706}, "Person 332": {"name": "Example Person 332", "address": "Example Address 332", "grade": 9, "lat": 30.387, "long": -97.72}, "Person 333": {"name": "Example Person 333", "address": "Example Address 333", "grade": 12, "lat": 30.348, "long": -97.813}, "Person 334": {"name": "Example Person 334", "address": "Example Address 334", "grade": 5, "lat": 30.374, "long": -97.746}, "Person 335": {"name": "Example Person 335", "address": "Example Address 335", "grade": 7, "lat": 30.145, "long": -97.641}, "Person 336": {"name": "Example Person 336", "address": "Example Address 336", "grade": 12, "lat": 30.126, "long": -97.614}, "Person 337": {"name": "Example Person 337", "address": "Example Address 337", "grade": 7, "lat": 30.225, "long": -97.849}, "Person 338": {"name": "Example Person 338", "address": "Example Address 338", "grade": 5, "lat": 30.415, "long": -97.719}, "Person 339": {"name": "Example Person 339", "address": "Example Address 339", "grade": 8, "lat": 30.177, "long": -97.639}, "Person 340": {"name": "Example Person 340", "address": "Example Address 340", "grade": 10, "lat": 30.313, "long": -97.864}, "Person 341": {"name": "Example Person 341", "address": "Example Address 341", "grade": 9, "lat": 30.33, "long": -97.713}, "Person 342": {"name": "Example Person 342", "address": "Example Address 342", "grade": 5, "lat": 30.174, "long": -97.749}, "Person 343": {"name": "Example Person 343", "address": "Example Address 343", "grade": 5, "lat": 30.207, "long": -97.737}, "Person 344": {"name": "Example Person 344", "address": "Example Address 344", "grade": 7, "lat": 30.34, "long": -97.706}, "Person 345": {"name": "Example Person 345", "address": "Example Address 345", "grade": 12, "lat": 30.359, "long": -97.676}, "Person 346": {"name": "Example Person 346", "address": "Example Address 346", "grade": 10, "lat": 30.295, "long": -97.772}, "Person 347": {"name": "Example Person 347", "address": "Example Address 347", "grade": 5, "lat": 30.359, "long": -97.784}, "Person 348": {"name": "Example Person 348", "address": "Example Address 348", "grade": 5, "lat": 30.374, "long": -97.755}, "Person 349": {"name": "Example Person 349", "address": "Example Address 349", "grade": 8, "lat": 30.273, "long": -97.891}, "Person 350": {"name": "Example Person 350", "address": "Example Address 350", "grade": 10, "lat": 30.138, "long": -97.688}, "Person 351": {"name": "Example Person 351", "address": "Example Address 351", "grade": 9, "lat": 30.382, "long": -97.861}, "Person 352": {"name": "Example Person 352", "address": "Example Address 352", "grade": 12, "lat": 30.236, "long": -97.806}, "Person 353": {"name": "Example Person 353", "address": "Example Address 353", "grade": 8, "lat": 30.325, "long": -97.784}, "Person 354": {"name": "Example Person 354", "address": "Example Address 354", "grade": 7, "lat": 30.344, "long": -97.837}, "Person 355": {"name": "Example Person 355", "address": "Example Address 355", "grade": 9, "lat": 30.312, "long": -97.814}, "Person 356": {"name": "Example Person 356", "address": "Example Address 356", "grade": 6, "lat": 30.415, "long": -97.86}, "Person 357": {"name": "Example Person 357", "address": "Example Address 357", "grade": 10, "lat": 30.416, "long": -97.722}, "Person 358": {"name": "Example Person 358", "address": "Example Address 358", "grade": 10, "lat": 30.128, "long": -97.774}, "Person 359": {"name": "Example Person 359", "address": "Example Address 359", "grade": 11, "lat": 30.235, "long": -97.656}, "Person 360": {"name": "Example Person 360", "address": "Example Address 360", "grade": 5, "lat": 30.232, "long": -97.781}, "Person 361": {"name": "Example Person 361", "address": "Example Address 361", "grade": 9, "lat": 30.163, "long": -97.611}, "Person 362": {"name": "Example Person 362", "address": "Example Address 362", "grade": 9, "lat": 30.211, "long": -97.708}, "Person 363": {"name": "Example Person 363", "address": "Example Address 363", "grade": 10, "lat": 30.304, "long": -97.677}, "Person 364": {"name": "Example Person 364", "address": "Example Address 364", "grade": 12, "lat": 30.301, "long": -97.875}, "Person 365": {"name": "Example Person 365", "address": "Example Address 365", "grade": 7, "lat": 30.254, "long": -97.867}, "Person 366": {"name": "Example Person 366", "address": "Example Address 366", "grade": 5, "lat": 30.197, "long": -97.788}, "Person 367": {"name": "Example Person 367", "address": "Example Address 367", "grade": 9, "lat": 30.397, "long": -97.812}, "Person 368": {"name": "Example Person 368", "address": "Example Address 368", "grade": 8, "lat": 30.374, "long": -97.867}, "Person 369": {"name": "Example Person 369", "address": "Example Address 369", "grade": 10, "lat": 30.409, "long": -97.858}, "Person 370": {"name": "Example Person 370", "address": "Example Address 370", "grade": 9, "lat": 30.355, "long": -97.868}, "Person 371": {"name": "Example Person 371", "address": "Example Address 371", "grade": 10, "lat": 30.172, "long": -97.645}, "Person 372": {"name": "Example Person 372", "address": "Example Address 372", "grade": 11, "lat": 30.24, "long": -97.608}, "Person 373": {"name": "Example Person 373", "address": "Example Address 373", "grade": 9, "lat": 30.223, "long": -97.766}, "Person 374": {"name": "Example Person 374", "address": "Example Address 374", "grade": 8, "lat": 30.156, "long": -97.775}, "Person 375": {"name": "Example Person 375", "address": "Example Address 375", "grade": 6, "lat": 30.36, "long": -97.786}, "Person 376": {"name": "Example Person 376", "address": "Example Address 376", "grade": 5, "lat": 30.378, "long": -97.776}, "Person 377": {"name": "Example Person 377", "address": "Example Address 377", "grade": 6, "lat": 30.367, "long": -97.842}, "Person 378": {"name": "Example Person 378", "address": "Example Address 378", "grade": 8, "lat": 30.122, "long": -97.704}, "Person 379": {"name": "Example Person 379", "address": "Example Address 379", "grade": 8, "lat": 30.39, "long": -97.703}, "Person 380": {"name": "Example Person 380", "address": "Example Address 380", "grade": 8, "lat": 30.366, "long": -97.624}, "Person 381": {"name": "Example Person 381", "address": "Example Address 381", "grade": 5, "lat": 30.153, "long": -97.857}, "Person 382": {"name": "Example Person 382", "address": "Example Address 382", "grade": 12, "lat": 30.339, "long": -97.841}, "Person 383": {"name": "Example Person 383", "address": "Example Address 383", "grade": 9, "lat": 30.18, "long": -97.607}, "Person 384": {"name": "Example Person 384", "address": "Example Address 384", "grade": 8, "lat": 30.185, "long": -97.792}, "Person 385": {"name": "Example Person 385", "address": "Example Address 385", "grade": 7, "lat": 30.383, "long": -97.835}, "Person 386": {"name": "Example Person 386", "address": "Example Address 386", "grade": 10, "lat": 30.179, "long": -97.767}, "Person 387": {"name": "Example Person 387", "address": "Example Address 387", "grade": 6, "lat": 30.398, "long": -97.599}, "Person 388": {"name": "Example Person 388", "address": "Example Address 388", "grade": 8, "lat": 30.23, "long": -97.837}, "Person 389": {"name": "Example Person 389", "address": "Example Address 389", "grade": 11, "lat": 30.374, "long": -97.86}, "Person 390": {"name": "Example Person 390", "address": "Example Address 390", "grade": 6, "lat": 30.362, "long": -97.767}, "Person 391": {"name": "Example Person 391", "address": "Example Address 391", "grade": 8, "lat": 30.118, "long": -97.829}, "Person 392": {"name": "Example Person 392", "address": "Example Address 392", "grade": 10, "lat": 30.303, "long": -97.618}, "Person 393": {"name": "Example Person 393", "address": "Example Address 393", "grade": 7, "lat": 30.233, "long": -97.856}, "Person 394": {"name": "Example Person 394", "address": "Example Address 394", "grade": 12, "lat": 30.12, "long": -97.801}, "Person 395": {"name": "Example Person 395", "address": "Example Address 395", "grade": 11, "lat": 30.157, "long": -97.842}, "Person 396": {"name": "Example Person 396", "address": "Example Address 396", "grade": 12, "lat": 30.365, "long": -97.673}, "Person 397": {"name": "Example Person 397", "address": "Example Address 397", "grade": 8, "lat": 30.205, "long": -97.769}, "Person 398": {"name": "Example Person 398", "address": "Example Address 398", "grade": 6, "lat": 30.219, "long": -97.884}, "Person 399": {"name": "Example Person 399", "address": "Example Address 399", "grade": 8, "lat": 30.282, "long": -97.695}, "Person 400": {"name": "Example Person 400", "address": "Example Address 400", "grade": 12, "lat": 30.39, "long": -97.597}, "Person 401": {"name": "Example Person 401", "address": "Example Address 401", "grade": 8, "lat": 30.126, "long": -97.674}, "Person 402": {"name": "Example Person 402", "address": "Example Address 402", "grade": 12, "lat": 30.334, "long": -97.65}, "Person 403": {"name": "Example Person 403", "address": "Example Address 403", "grade": 12, "lat": 30.343, "long": -97.639}, "Person 404": {"name": "Example Person 404", "address": "Example Address 404", "grade": 5, "lat": 30.226, "long": -97.76}, "Person 405": {"name": "Example Person 405", "address": "Example Address 405", "grade": 9, "lat": 30.405, "long": -97.643}, "Person 406": {"name": "Example Person 406", "address": "Example Address 406", "grade": 7, "lat": 30.225, "long": -97.835}, "Person 407": {"name": "Example Person 407", "address": "Example Address 407", "grade": 10, "lat": 30.359, "long": -97.881}, "Person 408": {"name": "Example Person 408", "address": "Example Address 408", "grade": 7, "lat": 30.39, "long": -97.798}, "Person 409": {"name": "Example Person 409", "address": "Example Address 409", "grade": 5, "lat": 30.378, "long": -97.756}, "Person 410": {"name": "Example Person 410", "address": "Example Address 410", "grade": 11, "lat": 30.229, "long": -97.651}, "Person 411": {"name": "Example Person 411", "address": "Example Address 411", "grade": 10, "lat": 30.331, "long": -97.772}, "Person 412": {"name": "Example Person 412", "address": "Example Address 412", "grade": 10, "lat": 30.213, "long": -97.843}, "Person 413": {"name": "Example Person 413", "address": "Example Address 413", "grade": 6, "lat": 30.305, "long": -97.883}, "Person 414": {"name": "Example Person 414", "address": "Example Address 414", "grade": 8, "lat": 30.333, "long": -97.739}, "Person 415": {"name": "Example Person 415", "address": "Example Address 415", "grade": 12, "lat": 30.383, "long": -97.859}, "Person 416": {"name": "Example Person 416", "address": "Example Address 416", "grade": 11, "lat": 30.316, "long": -97.811}, "Person 417": {"name": "Example Person 417", "address": "Example Address 417", "grade": 8, "lat": 30.279, "long": -97.829}, "Person 418": {"name": "Example Person 418", "address": "Example Address 418", "grade": 12, "lat": 30.35, "long": -97.669}, "Person 419": {"name": "Example Person 419", "address": "Example Address 419", "grade": 5, "lat": 30.391, "long": -97.832}, "Person 420": {"name": "Example Person 420", "address": "Example Address 420", "grade": 8, "lat": 30.343, "long": -97.87}, "Person 421": {"name": "Example Person 421", "address": "Example Address 421", "grade": 9, "lat": 30.248, "long": -97.624}, "Person 422": {"name": "Example Person 422", "address": "Example Address 422", "grade": 9, "lat": 30.376, "long": -97.612}, "Person 423": {"name": "Example Person 423", "address": "Example Address 423", "grade": 7, "lat": 30.287, "long": -97.781}, "Person 424": {"name": "Example Person 424", "address": "Example Address 424", "grade": 6, "lat": 30.275, "long": -97.885}, "Person 425": {"name": "Example Person 425", "address": "Example Address 425", "grade": 11, "lat": 30.152, "long": -97.658}, "Person 426": {"name": "Example Person 426", "address": "Example Address 426", "grade": 12, "lat": 30.356, "long": -97.781}, "Person 427": {"name": "Example Person 427", "address": "Example Address 427", "grade": 5, "lat": 30.174, "long": -97.705}, "Person 428": {"name": "Example Person 428", "address": "Example Address 428", "grade": 9, "lat": 30.268, "long": -97.779}, "Person 429": {"name": "Example Person 429", "address": "Example Address 429", "grade": 11, "lat": 30.221, "long": -97.735}, "Person 430": {"name": "Example Person 430", "address": "Example Address 430", "grade": 9, "lat": 30.341, "long": -97.743}, "Person 431": {"name": "Example Person 431", "address": "Example Address 431", "grade": 6, "lat": 30.155, "long": -97.632}, "Person 432": {"name": "Example Person 432", "address": "Example Address 432", "grade": 12, "lat": 30.182, "long": -97.653}, "Person 433": {"name": "Example Person 433", "address": "Example Address 433", "grade": 7, "lat": 30.172, "long": -97.776}, "Person 434": {"name": "Example Person 434", "address": "Example Address 434", "grade": 9, "lat": 30.267, "long": -97.868}, "Person 435": {"name": "Example Person 435", "address": "Example Address 435", "grade": 9, "lat": 30.239, "long": -97.851}, "Person 436": {"name": "Example Person 436", "address": "Example Address 436", "grade": 7, "lat": 30.223, "long": -97.852}, "Person 437": {"name": "Example Person 437", "address": "Example Address 437", "grade": 7, "lat": 30.171, "long": -97.651}, "Person 438": {"name": "Example Person 438", "address": "Example Address 438", "grade": 10, "lat": 30.318, "long": -97.762}, "Person 439": {"name": "Example Person 439", "address": "Example Address 439", "grade": 5, "lat": 30.28, "long": -97.71}, "Person 440": {"name": "Example Person 440", "address": "Example Address 440", "grade": 11, "lat": 30.137, "long": -97.877}, "Person 441": {"name": "Example Person 441", "address": "Example Address 441", "grade": 10, "lat": 30.402, "long": -97.78}, "Person 442": {"name": "Example Person 442", "address": "Example Address 442", "grade": 12, "lat": 30.355, "long": -97.745}, "Person 443": {"name": "Example Person 443", "address": "Example Address 443", "grade": 6, "lat": 30.294, "long": -97.696}, "Person 444": {"name": "Example Person 444", "address": "Example Address 444", "grade": 10, "lat": 30.404, "long": -97.745}, "Person 445": {"name": "Example Person 445", "address": "Example Address 445", "grade": 6, "lat": 30.223, "long": -97.741}, "Person 446": {"name": "Example Person 446", "address": "Example Address 446", "grade": 8, "lat": 30.38, "long": -97.674}, "Person 447": {"name": "Example Person 447", "address": "Example Address 447", "grade": 5, "lat": 30.19, "long": -97.616}, "Person 448": {"name": "Example Person 448", "address": "Example Address 448", "grade": 8, "lat": 30.256, "long": -97.798}, "Person 449": {"name": "Example Person 449", "address": "Example Address 449", "grade": 8, "lat": 30.152, "long": -97.741}, "Person 450": {"name": "Example Person 450", "address": "Example Address 450", "grade": 7, "lat": 30.12, "long": -97.77}, "Person 451": {"name": "Example Person 451", "address": "Example Address 451", "grade": 8, "lat": 30.294, "long": -97.782}, "Person 452": {"name": "Example Person 452", "address": "Example Address 452", "grade": 11, "lat": 30.274, "long": -97.673}, "Person 453": {"name": "Example Person 453", "address": "Example Address 453", "grade": 7, "lat": 30.181, "long": -97.748}, "Person 454": {"name": "Example Person 454", "address": "Example Address 454", "grade": 7, "lat": 30.244, "long": -97.697}, "Person 455": {"name": "Example Person 455", "address": "Example Address 455", "grade": 8, "lat": 30.325, "long": -97.644}, "Person 456": {"name": "Example Person 456", "address": "Example Address 456", "grade": 9, "lat": 30.172, "long": -97.833}, "Person 457": {"name": "Example Person 457", "address": "Example Address 457", "grade": 11, "lat": 30.259, "long": -97.716}, "Person 458": {"name": "Example Person 458", "address": "Example Address 458", "grade": 9, "lat": 30.398, "long": -97.636}, "Person 459": {"name": "Example Person 459", "address": "Example Address 459", "grade": 9, "lat": 30.152, "long": -97.594}, "Person 460": {"name": "Example Person 460", "address": "Example Address 460", "grade": 11, "lat": 30.228, "long": -97.786}, "Person 461": {"name": "Example Person 461", "address": "Example Address 461", "grade": 8, "lat": 30.196, "long": -97.61}, "Person 462": {"name": "Example Person 462", "address": "Example Address 462", "grade": 7, "lat": 30.284, "long": -97.611}, "Person 463": {"name": "Example Person 463", "address": "Example Address 463", "grade": 9, "lat": 30.263, "long": -97.689}, "Person 464": {"name": "Example Person 464", "address": "Example Address 464", "grade": 8, "lat": 30.356, "long": -97.711}, "Person 465": {"name": "Example Person 465", "address": "Example Address 465", "grade": 9, "lat": 30.263, "long": -97.672}, "Person 466": {"name": "Example Person 466", "address": "Example Address 466", "grade": 10, "lat": 30.22, "long": -97.763}, "Person 467": {"name": "Example Person 467", "address": "Example Address 467", "grade": 9, "lat": 30.352, "long": -97.605}, "Person 468": {"name": "Example Person 468", "address": "Example Address 468", "grade": 11, "lat": 30.388, "long": -97.878}, "Person 469": {"name": "Example Person 469", "address": "Example Address 469", "grade": 11, "lat": 30.153, "long": -97.741}, "Person 470": {"name": "Example Person 470", "address": "Example Address 470", "grade": 5, "lat": 30.328, "long": -97.706}, "Person 471": {"name": "Example Person 471", "address": "Example Address 471", "grade": 7, "lat": 30.385, "long": -97.847}, "Person 472": {"name": "Example Person 472", "address": "Example Address 472", "grade": 11, "lat": 30.134, "long": -97.742}, "Person 473": {"name": "Example Person 473", "address": "Example Address 473", "grade": 11, "lat": 30.373, "long": -97.743}, "Person 474": {"name": "Example Person 474", "address": "Example Address 474", "grade": 7, "lat": 30.352, "long": -97.625}, "Person 475": {"name": "Example Person 475", "address": "Example Address 475", "grade": 12, "lat": 30.217, "long": -97.858}, "Person 476": {"name": "Example Person 476", "address": "Example Address 476", "grade": 11, "lat": 30.254, "long": -97.857}, "Person 477": {"name": "Example Person 477", "address": "Example Address 477", "grade": 6, "lat": 30.152, "long": -97.815}, "Person 478": {"name": "Example Person 478", "address": "Example Address 478", "grade": 10, "lat": 30.179, "long": -97.733}, "Person 479": {"name": "Example Person 479", "address": "Example Address 479", "grade": 11, "lat": 30.121, "long": -97.758}, "Person 480": {"name": "Example Person 480", "address": "Example Address 480", "grade": 9, "lat": 30.129, "long": -97.823}, "Person 481": {"name": "Example Person 481", "address": "Example Address 481", "grade": 7, "lat": 30.136, "long": -97.784}, "Person 482": {"name": "Example Person 482", "address": "Example Address 482", "grade": 6, "lat": 30.132, "long": -97.672}, "Person 483": {"name": "Example Person 483", "address": "Example Address 483", "grade": 8, "lat": 30.354, "long": -97.629}, "Person 484": {"name": "Example Person 484", "address": "Example Address 484", "grade": 8, "lat": 30.242, "long": -97.797}, "Person 485": {"name": "Example Person 485", "address": "Example Address 485", "grade": 9, "lat": 30.385, "long": -97.729}, "Person 486": {"name": "Example Person 486", "address": "Example Address 486", "grade": 9, "lat": 30.357, "long": -97.759}, "Person 487": {"name": "Example Person 487", "address": "Example Address 487", "grade": 7, "lat": 30.292, "long": -97.617}, "Person 488": {"name": "Example Person 488", "address": "Example Address 488", "grade": 7, "lat": 30.394, "long": -97.878}, "Person 489": {"name": "Example Person 489", "address": "Example Address 489", "grade": 5, "lat": 30.281, "long": -97.639}, "Person 490": {"name": "Example Person 490", "address": "Example Address 490", "grade": 8, "lat": 30.177, "long": -97.88}, "Person 491": {"name": "Example Person 491", "address": "Example Address 491", "grade": 8, "lat": 30.168, "long": -97.687}, "Person 492": {"name": "Example Person 492", "address": "Example Address 492", "grade": 10, "lat": 30.304, "long": -97.824}, "Person 493": {"name": "Example Person 493", "address": "Example Address 493", "grade": 9, "lat": 30.349, "long": -97.834}, "Person 494": {"name": "Example Person 494", "address": "Example Address 494", "grade": 11, "lat": 30.313, "long": -97.822}, "Person 495": {"name": "Example Person 495", "address": "Example Address 495", "grade": 5, "lat": 30.165, "long": -97.842}, "Person 496": {"name": "Example Person 496", "address": "Example Address 496", "grade": 5, "lat": 30.17, "long": -97.672}, "Person 497": {"name": "Example Person 497", "address": "Example Address 497", "grade": 8, "lat": 30.125, "long": -97.775}, "Person 498": {"name": "Example Person 498", "address": "Example Address 498", "grade": 11, "lat": 30.32, "long": -97.658}, "Person 499": {"name": "Example Person 499", "address": "Example Address 499", "grade": 6, "lat": 30.309, "long": -97.61}, "Person 500": {"name": "Example Person 500", "address": "Example Address 500", "grade": 5, "lat": 30.267, "long": -97.805}}